Timestamp,Seconds,S,Um,Vm,Wm,T,P,H,MD,Sts,Vx,Vy,Vz,Lat,Lon,Alt,Yaw,Roll,Pitch,CH4,C2H6,H20,T_a,Batt,R,C2C1,Power,Current,SOC,Lat_a,Lon_a,TS,Timestamp_UTC
2023-04-19 07:10:05.669701-07:00,0.0,3.45,1.94,2.85,-0.13,16.71,887.15,52.03,25.0,0.0,-0.000696609,0.000472092,0.00278551,32.6911159,-103.075253,1155.37341,-25.5573686,0.533918142,1.04556597,,,,,,,,,,,,,,2023-04-19 14:10:05.669701+00:00
2023-04-19 07:10:05.863445-07:00,0.193744,3.11,1.64,2.61,-0.42,16.75,887.17,51.88,19.0,0.0,0.000197063,-0.000212286,0.00245158,32.6911159,-103.075253,1155.37012,-25.5440015,0.53383962,1.04081906,,,,,,,,,,,,,,2023-04-19 14:10:05.863445+00:00
2023-04-19 07:10:06.062895-07:00,0.393194,3.47,1.48,3.1,-0.45,16.74,887.16,52.38,18.0,0.0,-0.000172314,-0.000358939,0.00120992,32.6911158,-103.075253,1155.36206,-25.5272825,0.530636213,1.04603755,2.17984,57.6695,15647.8,23.3845,11888.0,-0.296743,-1.0,13.0,-1200.0,81.0,,0.0,,2023-04-19 14:10:06.062895+00:00
2023-04-19 07:10:06.263440-07:00,0.593739,3.08,2.34,1.98,-0.31,16.67,887.18,52.2,26.0,0.0,-0.000327955,-0.000391357,0.00140688,32.6911158,-103.075253,1155.36426,-25.5150885,0.533830311,1.03533736,,,,,,,,,,,,,,2023-04-19 14:10:06.263440+00:00
2023-04-19 07:10:06.463066-07:00,0.793365,3.06,2.26,2.05,-0.26,16.42,887.14,53.02,19.0,0.0,-0.000380386,-0.000201307,0.00157331,32.6911158,-103.075253,1155.35181,-25.4985671,0.535936559,1.0464913,,,,,,,,,,,,,,2023-04-19 14:10:06.463066+00:00
2023-04-19 07:10:06.663439-07:00,0.993738,3.57,2.97,1.98,-0.15,16.84,887.15,51.69,19.0,0.0,8.75544e-05,-0.00105631,-2.30609e-05,32.6911158,-103.075253,1155.35156,-25.4812609,0.535857224,1.03738952,,,,,,,,,,,,,,2023-04-19 14:10:06.663439+00:00
2023-04-19 07:10:06.863694-07:00,1.193993,2.85,2.32,1.66,0.02,16.87,887.15,51.52,26.0,0.0,-0.000710071,0.000608868,-0.000485844,32.6911158,-103.075253,1155.34326,-25.4646303,0.537601928,1.04594682,,,,,,,,,,,,,,2023-04-19 14:10:06.863694+00:00
2023-04-19 07:10:07.063132-07:00,1.393431,2.57,0.86,2.4,-0.32,16.97,887.16,51.2,18.0,0.0,6.89828e-05,-0.00108666,0.000204555,32.6911157,-103.075253,1155.34155,-25.4485843,0.536543226,1.03887533,2.17982,56.5598,15659.3,23.3933,11826.0,-0.302561,-1.0,14.0,-1175.0,81.0,,0.0,,2023-04-19 14:10:07.063132+00:00
2023-04-19 07:10:07.263198-07:00,1.593497,2.22,0.99,1.96,-0.37,17.12,887.18,50.67,19.0,0.0,-0.000166402,-0.000186432,0.00198879,32.6911157,-103.075253,1155.34326,-25.4343828,0.536017376,1.04290997,,,,,,,,,,,,,,2023-04-19 14:10:07.263198+00:00
2023-04-19 07:10:07.462883-07:00,1.793182,1.87,0.2,1.86,-0.0,17.44,887.18,50.11,26.0,0.0,0.0005866,-0.00160972,0.00206732,32.6911157,-103.075253,1155.33984,-25.4204674,0.537110954,1.04517872,,,,,,,,,,,,,,2023-04-19 14:10:07.462883+00:00
2023-04-19 07:10:07.663817-07:00,1.994116,2.38,0.98,2.16,0.18,17.28,887.18,50.21,18.0,0.0,-0.000218101,0.000469151,0.00127599,32.6911156,-103.075253,1155.3396,-25.4071469,0.537444077,1.03140584,,,,,,,,,,,,,,2023-04-19 14:10:07.663817+00:00
2023-04-19 07:10:07.863580-07:00,2.193879,2.23,1.4,1.73,0.19,17.0,887.19,51.04,20.0,0.0,0.000412152,-0.00102192,0.00234399,32.6911156,-103.075253,1155.34814,-25.3949529,0.537359242,1.0485756,,,,,,,,,,,,,,2023-04-19 14:10:07.863580+00:00
2023-04-19 07:10:08.063401-07:00,2.3937,3.12,1.27,2.82,-0.41,16.8,887.17,51.81,23.0,0.0,7.93245e-05,-0.000680574,0.00323999,32.6911155,-103.075253,1155.35437,-25.3803301,0.537200056,1.03711755,2.18068,56.6228,15645.4,23.4009,11895.0,-0.223925,-1.0,14.0,-1181.0,81.0,,0.0,,2023-04-19 14:10:08.063401+00:00
2023-04-19 07:10:08.263687-07:00,2.593986,3.18,1.08,2.97,-0.38,16.54,887.17,52.68,18.0,0.0,-0.000162316,-0.000424716,0.00327725,32.6911155,-103.075253,1155.35181,-25.3691604,0.538490421,1.04219941,,,,,,,,,,,,,,2023-04-19 14:10:08.263687+00:00
2023-04-19 07:10:08.463080-07:00,2.793379,3.45,0.98,3.28,-0.42,16.3,887.15,53.49,22.0,0.0,9.97051e-05,-0.00111603,0.00239899,32.6911154,-103.075253,1155.35583,-25.3563309,0.540343589,1.03515878,,,,,,,,,,,,,,2023-04-19 14:10:08.463080+00:00
2023-04-19 07:10:08.663463-07:00,2.993762,3.27,0.83,3.13,-0.52,16.29,887.14,53.47,23.0,0.0,-0.000656809,-0.000377213,0.00343112,32.6911154,-103.075253,1155.36072,-25.3414484,0.540036796,1.03748164,,,,,,,,,,,,,,2023-04-19 14:10:08.663463+00:00
2023-04-19 07:10:08.863404-07:00,3.193703,3.79,1.53,3.44,-0.45,16.67,887.13,52.17,17.0,0.0,-0.000212908,-0.00162247,0.00203308,32.6911154,-103.075253,1155.35815,-25.3273561,0.540395311,1.03681452,,,,,,,,,,,,,,2023-04-19 14:10:08.863404+00:00
2023-04-19 07:10:09.063828-07:00,3.394127,3.42,1.93,2.82,-0.22,16.6,887.13,52.48,23.0,0.0,-0.000224074,-8.56494e-05,0.00256411,32.6911153,-103.075253,1155.37256,-25.311894,0.538982574,1.03195522,2.17741,57.2258,15656.8,23.4099,11864.0,-0.265911,-1.0,11.0,-1194.0,81.0,,0.0,,2023-04-19 14:10:09.063828+00:00
2023-04-19 07:10:09.262963-07:00,3.593262,3.42,1.54,3.03,-0.4,16.59,887.14,52.51,22.0,0.0,1.80377e-06,-0.000921692,0.00394556,32.6911153,-103.075253,1155.3761,-25.2970957,0.538439199,1.04441308,,,,,,,,,,,,,,2023-04-19 14:10:09.262963+00:00
2023-04-19 07:10:09.463730-07:00,3.794029,3.11,1.89,2.47,-0.16,16.66,887.14,52.21,18.0,0.0,-0.000531318,-4.05501e-05,0.00454436,32.6911153,-103.075253,1155.39258,-25.2838891,0.539334742,1.03952837,,,,,,,,,,,,,,2023-04-19 14:10:09.463730+00:00
2023-04-19 07:10:09.663244-07:00,3.993543,3.27,1.22,2.99,-0.51,16.48,887.16,52.82,24.0,0.0,-0.000464447,-0.000276577,0.00291717,32.6911152,-103.075253,1155.38464,-25.2735042,0.53829898,1.04942439,,,,,,,,,,,,,,2023-04-19 14:10:09.663244+00:00
2023-04-19 07:10:09.863529-07:00,4.193828,2.81,0.7,2.68,-0.46,16.69,887.18,52.12,22.0,0.0,-0.000231628,-0.000580717,0.000437426,32.6911152,-103.075253,1155.36755,-25.2612134,0.536641353,1.0499234,,,,,,,,,,,,,,2023-04-19 14:10:09.863529+00:00
2023-04-19 07:10:10.063687-07:00,4.393986,2.0,-0.17,1.99,-0.03,17.28,887.2,50.2,18.0,0.0,-0.000351638,-0.000272468,-0.00180468,32.6911152,-103.075253,1155.34692,-25.246482,0.536311878,1.05642993,2.17783,57.4003,15620.1,23.4181,11834.0,-0.353157,-1.0,14.0,-1170.0,81.0,,0.0,,2023-04-19 14:10:10.063687+00:00
2023-04-19 07:10:10.262968-07:00,4.593267,1.74,0.58,1.64,0.14,17.4,887.21,49.86,25.0,0.0,0.000102956,-0.000254059,-0.00308954,32.6911151,-103.075253,1155.32312,-25.233001,0.536049606,1.05006195,,,,,,,,,,,,,,2023-04-19 14:10:10.262968+00:00
2023-04-19 07:10:10.463774-07:00,4.794073,3.15,0.29,3.13,-0.2,16.57,887.18,52.51,20.0,0.0,-3.92267e-05,-0.000206994,-0.00269807,32.6911151,-103.075253,1155.31104,-25.2205843,0.535229432,1.04945214,,,,,,,,,,,,,,2023-04-19 14:10:10.463774+00:00
2023-04-19 07:10:10.663462-07:00,4.993761,3.17,0.32,3.16,0.08,16.54,887.15,52.56,18.0,0.0,9.6368e-05,-0.000475028,-2.58054e-05,32.6911151,-103.075253,1155.29443,-25.2024798,0.531778175,1.04736923,,,,,,,,,,,,,,2023-04-19 14:10:10.663462+00:00
2023-04-19 07:10:10.863653-07:00,5.193952,3.36,0.4,3.29,-0.53,16.24,887.15,53.63,25.0,0.0,-0.000500628,-0.000298214,0.00172601,32.691115,-103.075253,1155.29053,-25.1918557,0.531811623,1.03902135,,,,,,,,,,,,,,2023-04-19 14:10:10.863653+00:00
2023-04-19 07:10:11.064365-07:00,5.394664,3.87,0.93,3.74,-0.36,16.51,887.11,52.73,19.0,0.0,-0.000511445,-0.000455801,0.00238436,32.691115,-103.075253,1155.27991,-25.1754121,0.533390589,1.04508564,2.17933,56.9402,15595.3,23.4266,11896.0,-0.396804,-1.0,13.0,-1180.0,81.0,,0.0,,2023-04-19 14:10:11.064365+00:00
2023-04-19 07:10:11.263223-07:00,5.593522,3.97,0.37,3.95,-0.1,16.86,887.11,51.57,19.0,0.0,-1.09411e-05,-0.00106111,0.00394347,32.6911149,-103.075253,1155.28174,-25.1609246,0.530936935,1.03284927,,,,,,,,,,,,,,2023-04-19 14:10:11.263223+00:00
2023-04-19 07:10:11.463783-07:00,5.794082,4.3,1.19,4.13,0.01,16.45,887.11,53.03,27.0,0.0,-0.000888455,0.000578719,0.00609122,32.6911149,-103.075254,1155.28186,-25.1480938,0.536212002,1.05318088,,,,,,,,,,,,,,2023-04-19 14:10:11.463783+00:00
2023-04-19 07:10:11.663280-07:00,5.993579,3.55,0.39,3.51,-0.43,16.34,887.14,53.34,19.0,0.0,1.09652e-05,-0.00166686,0.00773821,32.6911148,-103.075254,1155.29297,-25.1289811,0.535490539,1.0393626,,,,,,,,,,,,,,2023-04-19 14:10:11.663280+00:00
2023-04-19 07:10:11.863241-07:00,6.19354,2.21,-0.07,2.2,-0.17,16.7,887.15,52.14,20.0,0.0,-0.000648882,0.00130689,0.00933546,32.6911148,-103.075254,1155.30603,-25.1187536,0.536380711,1.04869109,,,,,,,,,,,,,,2023-04-19 14:10:11.863241+00:00
2023-04-19 07:10:12.064520-07:00,6.394819,2.84,1.9,2.11,-0.19,16.59,887.15,52.51,26.0,0.0,0.000722681,-0.00144156,0.00880438,32.6911147,-103.075254,1155.3136,-25.1055365,0.540299627,1.06105177,2.17918,56.6523,15582.4,23.4346,11850.0,-0.426943,-1.0,12.0,-1190.0,81.0,,0.0,,2023-04-19 14:10:12.064520+00:00
2023-04-19 07:10:12.262990-07:00,6.593289,2.82,1.18,2.53,-0.39,16.52,887.15,52.8,18.0,0.0,-0.000501542,0.00025937,0.00714162,32.6911147,-103.075254,1155.30945,-25.0932771,0.5399392,1.04003527,,,,,,,,,,,,,,2023-04-19 14:10:12.262990+00:00
2023-04-19 07:10:12.463378-07:00,6.793677,2.93,1.55,2.49,-0.1,16.67,887.16,52.17,20.0,0.0,0.000408492,-0.000279276,0.00558654,32.6911146,-103.075254,1155.31311,-25.0796224,0.541502607,1.06131083,,,,,,,,,,,,,,2023-04-19 14:10:12.463378+00:00
2023-04-19 07:10:12.662930-07:00,6.993229,3.27,0.62,3.2,-0.26,16.57,887.12,52.51,26.0,0.0,0.000860367,-0.00146482,0.0068942,32.6911145,-103.075254,1155.32996,-25.0679414,0.539816866,1.04347089,,,,,,,,,,,,,,2023-04-19 14:10:12.662930+00:00
2023-04-19 07:10:12.863853-07:00,7.194152,3.04,-0.07,3.03,-0.21,16.62,887.13,52.39,18.0,0.0,-0.000140445,-0.000484355,0.00809522,32.6911145,-103.075254,1155.34595,-25.0551752,0.541929634,1.04996247,,,,,,,,,,,,,,2023-04-19 14:10:12.863853+00:00
2023-04-19 07:10:13.064534-07:00,7.394833,2.07,0.27,2.05,-0.09,16.8,887.17,51.8,20.0,0.0,0.000147017,-0.0010913,0.00680832,32.6911144,-103.075254,1155.34827,-25.0429574,0.539865866,1.05291136,2.18132,57.7858,15553.8,23.4425,11854.0,-0.406822,-1.0,14.0,-1162.0,81.0,,0.0,,2023-04-19 14:10:13.064534+00:00
2023-04-19 07:10:13.263396-07:00,7.593695,2.47,1.64,1.84,0.13,17.05,887.18,50.93,25.0,0.0,-0.000591932,-8.30251e-05,0.00485126,32.6911143,-103.075254,1155.3457,-25.0291964,0.537300228,1.05319038,,,,,,,,,,,,,,2023-04-19 14:10:13.263396+00:00
2023-04-19 07:10:13.463392-07:00,7.793691,2.84,1.44,2.43,-0.24,16.78,887.17,51.93,17.0,0.0,-7.84241e-05,-0.000629285,0.00211856,32.6911143,-103.075254,1155.33496,-25.0152772,0.536604205,1.0569282,,,,,,,,,,,,,,2023-04-19 14:10:13.463392+00:00
2023-04-19 07:10:13.663093-07:00,7.993392,2.98,0.36,2.95,-0.27,16.92,887.18,51.41,21.0,0.0,-0.000399351,-0.000455334,0.00228411,32.6911142,-103.075254,1155.34009,-24.9992635,0.538717559,1.04650176,,,,,,,,,,,,,,2023-04-19 14:10:13.663093+00:00
2023-04-19 07:10:13.863073-07:00,8.193372,2.95,0.64,2.88,-0.22,16.99,887.17,51.24,24.0,0.0,-0.000442565,-7.373e-05,0.00415747,32.6911142,-103.075254,1155.34216,-24.9891446,0.537122392,1.04779587,,,,,,,,,,,,,,2023-04-19 14:10:13.863073+00:00
2023-04-19 07:10:14.064431-07:00,8.39473,1.1,-0.65,0.85,0.25,17.65,887.18,49.11,18.0,0.0,-0.00035538,-0.000356823,0.00537024,32.6911141,-103.075254,1155.3457,-24.9829002,0.53922805,1.06924291,2.1766,57.1233,15539.1,23.4513,11896.0,-0.42452,-1.0,11.0,-1198.0,81.0,,0.0,,2023-04-19 14:10:14.064431+00:00
2023-04-19 07:10:14.263782-07:00,8.594081,0.66,0.48,0.37,0.27,18.02,887.18,48.02,22.0,0.0,0.000144232,-0.00196028,0.00338471,32.6911141,-103.075254,1155.34375,-24.9717626,0.538122091,1.06671711,,,,,,,,,,,,,,2023-04-19 14:10:14.263782+00:00
2023-04-19 07:10:14.463387-07:00,8.793686,2.32,1.44,1.8,0.21,18.1,887.19,47.72,23.0,0.0,-0.000855746,-0.000258055,0.00349659,32.691114,-103.075254,1155.34656,-24.9563898,0.53892389,1.05754163,,,,,,,,,,,,,,2023-04-19 14:10:14.463387+00:00
2023-04-19 07:10:14.663393-07:00,8.993692,1.62,1.25,1.03,0.09,18.0,887.19,48.02,18.0,0.0,0.000513174,-0.000999814,0.00402712,32.691114,-103.075254,1155.34656,-24.9411621,0.53800668,1.0526474,,,,,,,,,,,,,,2023-04-19 14:10:14.663393+00:00
2023-04-19 07:10:14.863596-07:00,9.193895,2.02,1.11,1.69,0.07,17.74,887.2,48.83,23.0,0.0,-0.000943495,0.000479686,0.00276582,32.6911139,-103.075254,1155.33728,-24.9273727,0.537969499,1.03269236,,,,,,,,,,,,,,2023-04-19 14:10:14.863596+00:00
2023-04-19 07:10:15.064577-07:00,9.394876,2.68,1.64,2.12,0.01,17.01,887.19,51.11,22.0,0.0,0.000115818,-0.000647739,0.000811897,32.6911139,-103.075254,1155.32385,-24.916119,0.536114666,1.05572236,2.17663,57.6455,15548.7,23.4594,11836.0,-0.466317,-1.0,11.0,-1193.0,81.0,,0.0,,2023-04-19 14:10:15.064577+00:00
2023-04-19 07:10:15.262974-07:00,9.593273,3.52,2.2,2.75,-0.09,16.75,887.17,52.03,18.0,0.0,-6.72479e-05,-0.00141541,0.00215328,32.6911138,-103.075254,1155.32922,-24.9000769,0.534948308,1.03109448,,,,,,,,,,,,,,2023-04-19 14:10:15.262974+00:00
2023-04-19 07:10:15.463661-07:00,9.79396,4.0,1.04,3.84,-0.44,16.57,887.15,52.61,24.0,0.0,-0.00109582,-0.000225095,0.00313098,32.6911138,-103.075255,1155.32788,-24.8896424,0.537351687,1.06462308,,,,,,,,,,,,,,2023-04-19 14:10:15.463661+00:00
2023-04-19 07:10:15.662942-07:00,9.993241,4.59,1.24,4.41,-0.19,16.27,887.13,53.7,21.0,0.0,0.000446767,-0.00312995,0.00270504,32.6911138,-103.075255,1155.32959,-24.8745365,0.537395541,1.04180789,,,,,,,,,,,,,,2023-04-19 14:10:15.662942+00:00
2023-04-19 07:10:15.863689-07:00,10.193988,4.62,1.45,4.33,-0.72,16.17,887.12,53.92,18.0,0.0,-0.00235424,9.68368e-05,0.00646317,32.6911137,-103.075255,1155.34082,-24.8604511,0.540285712,1.05459689,,,,,,,,,,,,,,2023-04-19 14:10:15.863689+00:00
2023-04-19 07:10:16.064084-07:00,10.394383,3.8,0.88,3.69,-0.22,16.1,887.1,54.16,26.0,0.0,-0.000275299,-0.00302466,0.0165682,32.6911136,-103.075255,1155.37573,-24.8464084,0.538222308,1.04874425,2.17618,58.7622,15573.4,23.4675,11866.0,-0.498473,-1.0,16.0,-1180.0,81.0,,0.0,,2023-04-19 14:10:16.064084+00:00
2023-04-19 07:10:16.262863-07:00,10.593162,4.07,2.24,3.4,-0.06,16.62,887.14,52.46,20.0,0.0,-0.00207939,-0.00194741,0.0298523,32.6911135,-103.075255,1155.40503,-24.835872,0.539827284,1.04408293,,,,,,,,,,,,,,2023-04-19 14:10:16.262863+00:00
2023-04-19 07:10:16.463249-07:00,10.793548,4.06,0.92,3.95,-0.2,16.28,887.12,53.51,18.0,0.0,-0.00170551,-0.00330978,0.0423373,32.6911135,-103.075255,1155.45044,-24.8219148,0.540212368,1.06658582,,,,,,,,,,,,,,2023-04-19 14:10:16.463249+00:00
2023-04-19 07:10:16.663222-07:00,10.993521,4.71,0.06,4.7,-0.3,16.34,887.11,53.41,26.0,0.0,-0.00151915,-0.000161802,0.0390414,32.6911134,-103.075255,1155.43494,-24.8113791,0.539835696,1.04847857,,,,,,,,,,,,,,2023-04-19 14:10:16.663222+00:00
2023-04-19 07:10:16.862916-07:00,11.193215,4.16,0.55,4.12,-0.28,16.43,887.12,53.17,19.0,0.0,-0.000919789,0.00131003,0.0307622,32.6911133,-103.075255,1155.45496,-24.7984169,0.544082605,1.10851996,,,,,,,,,,,,,,2023-04-19 14:10:16.862916+00:00
2023-04-19 07:10:17.063777-07:00,11.394076,3.38,1.11,3.18,0.23,16.28,887.1,53.62,18.0,0.0,0.000609102,-0.00364537,0.025151,32.6911133,-103.075255,1155.46912,-24.7845384,0.540557996,1.05804811,2.17419,58.3176,15557.3,23.4761,11896.0,-0.526725,-1.0,13.0,-1206.0,81.0,,0.0,,2023-04-19 14:10:17.063777+00:00
2023-04-19 07:10:17.263317-07:00,11.593616,3.25,1.86,2.65,0.21,16.36,887.14,53.33,26.0,0.0,-0.00319695,0.00139362,0.0177852,32.6911132,-103.075255,1155.46851,-24.7696163,0.543788166,1.0707963,,,,,,,,,,,,,,2023-04-19 14:10:17.263317+00:00
2023-04-19 07:10:17.463064-07:00,11.793363,3.38,0.91,3.25,-0.17,16.5,887.15,52.93,18.0,0.0,-0.00214222,-0.000905111,0.0108276,32.6911132,-103.075255,1155.46436,-24.7524038,0.541292746,1.07861397,,,,,,,,,,,,,,2023-04-19 14:10:17.463064+00:00
2023-04-19 07:10:17.662965-07:00,11.993264,4.5,2.3,3.86,0.09,16.26,887.13,53.67,18.0,0.0,-0.00665596,0.00230078,0.00296292,32.6911131,-103.075255,1155.44641,-24.7333773,0.545060827,1.06618021,,,,,,,,,,,,,,2023-04-19 14:10:17.662965+00:00
2023-04-19 07:10:17.863780-07:00,12.194079,4.28,2.55,3.44,0.03,16.22,887.11,53.81,26.0,0.0,-0.00411671,0.000798155,0.00245536,32.6911131,-103.075255,1155.479,-24.7224557,0.547603788,1.07679746,,,,,,,,,,,,,,2023-04-19 14:10:17.863780+00:00
2023-04-19 07:10:18.063963-07:00,12.394262,3.32,2.58,2.07,0.34,16.35,887.09,53.35,18.0,0.0,-0.00342648,0.00170763,0.0187228,32.6911131,-103.075255,1155.50464,-24.7077468,0.54196882,1.04971259,2.1768,58.6814,15518.2,23.4842,11830.0,-0.599034,-1.0,14.0,-1181.0,81.0,,0.0,,2023-04-19 14:10:18.063963+00:00
2023-04-19 07:10:18.263044-07:00,12.593343,2.54,2.16,1.23,0.53,17.14,887.13,50.72,18.0,0.0,-0.00365429,0.000390489,0.029609,32.691113,-103.075255,1155.52966,-24.6975465,0.542355415,1.0686442,,,,,,,,,,,,,,2023-04-19 14:10:18.263044+00:00
2023-04-19 07:10:18.463777-07:00,12.794076,2.29,1.62,1.61,0.04,17.63,887.17,49.2,25.0,0.0,-0.00097792,0.000439379,0.0308858,32.691113,-103.075255,1155.52527,-24.6850096,0.539758669,1.05104107,,,,,,,,,,,,,,2023-04-19 14:10:18.463777+00:00
2023-04-19 07:10:18.662888-07:00,12.993187,3.45,2.43,2.45,0.09,16.79,887.16,51.88,18.0,0.0,-0.000513314,0.000509232,0.0212623,32.6911129,-103.075255,1155.49438,-24.6765468,0.541014367,1.07491285,,,,,,,,,,,,,,2023-04-19 14:10:18.662888+00:00
2023-04-19 07:10:18.863469-07:00,13.193768,4.75,3.85,2.75,0.42,16.54,887.11,52.73,20.0,0.0,0.00019035,-0.000445239,0.0131816,32.6911129,-103.075255,1155.47498,-24.6634395,0.539553673,1.07459124,,,,,,,,,,,,,,2023-04-19 14:10:18.863469+00:00
2023-04-19 07:10:19.064589-07:00,13.394888,4.09,3.27,2.3,0.85,16.54,887.13,52.77,25.0,0.0,-0.00091102,0.00113191,0.0105675,32.6911128,-103.075255,1155.49133,-24.6523353,0.540544924,1.10412957,2.17572,58.7177,15496.5,23.492,11879.0,-0.584193,-1.0,14.0,-1165.0,81.0,,0.0,,2023-04-19 14:10:19.064589+00:00
2023-04-19 07:10:19.263829-07:00,13.594128,4.35,3.54,2.37,0.87,16.44,887.1,52.95,17.0,0.0,0.000746628,-0.00202169,0.00861648,32.6911128,-103.075255,1155.4873,-24.6390369,0.539588667,1.08419288,,,,,,,,,,,,,,2023-04-19 14:10:19.263829+00:00
2023-04-19 07:10:19.463083-07:00,13.793382,4.56,3.3,3.07,0.71,16.46,887.1,52.99,21.0,0.0,-0.00149152,0.00264749,0.00776453,32.6911128,-103.075255,1155.5061,-24.6232278,0.534079647,1.07735795,,,,,,,,,,,,,,2023-04-19 14:10:19.463083+00:00
2023-04-19 07:10:19.663591-07:00,13.99389,4.1,3.19,2.52,0.56,16.64,887.11,52.33,24.0,0.0,-0.000227201,0.00195629,0.010987,32.6911127,-103.075255,1155.5332,-24.6129944,0.536740351,1.10626408,,,,,,,,,,,,,,2023-04-19 14:10:19.663591+00:00
2023-04-19 07:10:19.862990-07:00,14.193289,4.64,1.55,4.37,-0.2,16.91,887.07,51.5,17.0,0.0,9.25127e-05,-9.14565e-05,0.0195442,32.6911127,-103.075255,1155.5564,-24.6002375,0.541288701,1.06863096,,,,,,,,,,,,,,2023-04-19 14:10:19.862990+00:00
2023-04-19 07:10:20.064825-07:00,14.395124,3.5,0.87,3.38,-0.23,16.9,887.11,51.61,21.0,0.0,-0.00130154,0.000924918,0.0143032,32.6911126,-103.075256,1155.54126,-24.6013319,0.538624664,1.09353272,2.17203,58.7158,15501.1,23.5011,11884.0,-0.635551,-1.0,12.0,-1191.0,81.0,,0.0,,2023-04-19 14:10:20.064825+00:00
2023-04-19 07:10:20.262865-07:00,14.593164,3.3,0.44,3.27,0.16,17.05,887.14,51.2,23.0,0.0,-0.00230333,-0.00261885,0.0111676,32.6911126,-103.075256,1155.55481,-24.5956305,0.540073884,1.05301255,,,,,,,,,,,,,,2023-04-19 14:10:20.262865+00:00
2023-04-19 07:10:20.463816-07:00,14.794115,3.57,1.05,3.4,0.18,16.62,887.12,52.5,17.0,0.0,-0.00356917,0.000891342,0.0109716,32.6911125,-103.075256,1155.55859,-24.5788674,0.542806652,1.06092934,,,,,,,,,,,,,,2023-04-19 14:10:20.463816+00:00
2023-04-19 07:10:20.663067-07:00,14.993366,2.91,2.27,1.75,0.47,16.76,887.16,52.06,22.0,0.0,-0.00258227,-0.00202764,0.00526446,32.6911125,-103.075256,1155.52588,-24.5627901,0.537475057,1.04940507,,,,,,,,,,,,,,2023-04-19 14:10:20.663067+00:00
2023-04-19 07:10:20.863085-07:00,15.193384,1.87,1.45,1.09,0.47,16.97,887.17,51.37,22.0,0.0,-0.00334864,-0.00261424,0.00506551,32.6911124,-103.075256,1155.54749,-24.542665,0.538301606,1.039266,,,,,,,,,,,,,,2023-04-19 14:10:20.863085+00:00
2023-04-19 07:10:21.064628-07:00,15.394927,2.56,-0.43,2.52,-0.11,16.69,887.19,52.23,17.0,0.0,-0.00173479,-0.00231324,0.00611569,32.6911124,-103.075256,1155.50293,-24.5260563,0.535191781,1.05423302,2.17381,58.9618,15515.7,23.509,11891.0,-0.694618,-1.0,12.0,-1170.0,81.0,,0.0,,2023-04-19 14:10:21.064628+00:00
2023-04-19 07:10:21.263493-07:00,15.593792,2.26,-0.38,2.22,-0.11,16.69,887.16,52.22,24.0,0.0,-0.00159859,-0.000387849,0.00293834,32.6911123,-103.075256,1155.51343,-24.5123052,0.537462178,1.0406598,,,,,,,,,,,,,,2023-04-19 14:10:21.263493+00:00
2023-04-19 07:10:21.463288-07:00,15.793587,2.86,-0.32,2.82,-0.34,16.97,887.14,51.31,22.0,0.0,-0.000735941,0.000575259,0.00868561,32.6911123,-103.075256,1155.50781,-24.4987055,0.535007635,1.05333555,,,,,,,,,,,,,,2023-04-19 14:10:21.463288+00:00
2023-04-19 07:10:21.663577-07:00,15.993876,2.41,-0.61,2.33,0.14,16.89,887.15,51.69,17.0,0.0,0.000244733,-0.000163291,0.00997907,32.6911122,-103.075256,1155.50024,-24.4906967,0.535478253,1.03840291,,,,,,,,,,,,,,2023-04-19 14:10:21.663577+00:00
2023-04-19 07:10:21.863766-07:00,16.194065,1.66,-0.63,1.52,0.23,17.43,887.17,49.82,24.0,0.0,-0.000451771,-0.000257587,0.00874141,32.6911122,-103.075256,1155.51831,-24.483962,0.540339139,1.03493356,,,,,,,,,,,,,,2023-04-19 14:10:21.863766+00:00
2023-04-19 07:10:22.064107-07:00,16.394406,1.31,-0.73,0.96,0.52,17.55,887.18,49.39,20.0,0.0,0.000340679,-0.000623203,0.00761059,32.6911122,-103.075256,1155.50989,-24.478014,0.538457972,1.05355639,2.17406,58.6079,15523.2,23.5151,11891.0,-0.745047,-1.0,12.0,-1170.0,81.0,,0.0,,2023-04-19 14:10:22.064107+00:00
2023-04-19 07:10:22.263227-07:00,16.593526,2.28,0.04,2.28,-0.05,17.3,887.19,50.24,18.0,0.0,-0.000380463,-0.00130502,0.0050148,32.6911122,-103.075256,1155.5188,-24.4680634,0.542839661,1.05025803,,,,,,,,,,,,,,2023-04-19 14:10:22.263227+00:00
2023-04-19 07:10:22.463802-07:00,16.794101,4.94,-0.06,4.93,-0.28,16.37,887.16,53.26,25.0,0.0,-0.000265516,-0.00023229,0.00243318,32.6911121,-103.075256,1155.50159,-24.4528529,0.541847569,1.05403512,,,,,,,,,,,,,,2023-04-19 14:10:22.463802+00:00
2023-04-19 07:10:22.663246-07:00,16.993545,4.0,-0.28,3.96,-0.5,16.48,887.12,53.03,19.0,0.0,-4.26912e-05,-0.00153271,0.00198148,32.6911121,-103.075256,1155.50549,-24.4363821,0.542754377,1.05243274,,,,,,,,,,,,,,2023-04-19 14:10:22.663246+00:00
2023-04-19 07:10:22.863381-07:00,17.19368,4.04,0.74,3.94,-0.54,16.75,887.11,52.1,18.0,0.0,-0.000354539,-0.000465053,0.00250345,32.6911121,-103.075257,1155.51953,-24.4232592,0.542566999,1.04651286,,,,,,,,,,,,,,2023-04-19 14:10:22.863381+00:00
2023-04-19 07:10:23.063870-07:00,17.394169,2.87,1.45,2.47,0.11,17.0,887.15,51.28,25.0,0.0,0.000840803,-0.00135135,0.00275725,32.691112,-103.075257,1155.52563,-24.4109887,0.537217173,1.05160861,2.17395,59.0838,15542.3,23.5191,11873.0,-0.814089,-1.0,11.0,-1210.0,81.0,,0.0,,2023-04-19 14:10:23.063870+00:00
2023-04-19 07:10:23.263143-07:00,17.593442,2.29,0.55,2.22,-0.18,16.69,887.17,52.33,18.0,0.0,-0.000460984,-1.55262e-05,0.00281336,32.691112,-103.075257,1155.51611,-24.3955915,0.536867214,1.0308809,,,,,,,,,,,,,,2023-04-19 14:10:23.263143+00:00
2023-04-19 07:10:23.463352-07:00,17.793651,2.39,1.36,1.96,0.22,16.94,887.18,51.5,18.0,0.0,-0.000330228,-0.000552261,0.000982822,32.6911119,-103.075257,1155.50439,-24.3832244,0.536578617,1.0614371,,,,,,,,,,,,,,2023-04-19 14:10:23.463352+00:00
2023-04-19 07:10:23.663095-07:00,17.993394,2.8,0.32,2.73,-0.55,16.93,887.17,51.56,25.0,0.0,0.000727835,-0.00156874,0.0013421,32.6911119,-103.075257,1155.50854,-24.3727977,0.534716684,1.02690188,,,,,,,,,,,,,,2023-04-19 14:10:23.663095+00:00
2023-04-19 07:10:23.863400-07:00,18.193699,4.12,0.03,4.08,-0.53,16.69,887.16,52.23,18.0,0.0,-0.000866716,0.000651301,0.00184329,32.6911119,-103.075257,1155.51343,-24.3628177,0.53635685,1.04821333,,,,,,,,,,,,,,2023-04-19 14:10:23.863400+00:00
2023-04-19 07:10:24.063981-07:00,18.39428,4.25,0.04,4.19,-0.77,16.67,887.13,52.36,19.0,0.0,0.000835498,-0.00326872,0.0042593,32.6911119,-103.075257,1155.51428,-24.3559085,0.534085359,1.03989512,2.17461,59.6053,15547.5,23.5272,11828.0,-0.818004,-1.0,12.0,-1175.0,81.0,,0.0,,2023-04-19 14:10:24.063981+00:00
2023-04-19 07:10:24.263784-07:00,18.594083,2.8,1.03,2.6,0.06,16.99,887.12,51.23,25.0,0.0,-0.00137031,8.11221e-06,0.00534558,32.6911118,-103.075257,1155.51917,-24.3422045,0.535763041,1.03825828,,,,,,,,,,,,,,2023-04-19 14:10:24.263784+00:00
2023-04-19 07:10:24.463598-07:00,18.793897,1.67,1.29,1.06,0.1,17.28,887.17,50.43,18.0,0.0,-3.48828e-05,-0.00365697,0.000639974,32.6911118,-103.075257,1155.49084,-24.3323437,0.535699406,1.04898847,,,,,,,,,,,,,,2023-04-19 14:10:24.463598+00:00
2023-04-19 07:10:24.663144-07:00,18.993443,2.88,1.97,2.1,-0.09,16.88,887.17,51.77,19.0,0.0,-0.000624656,-0.00253085,-0.00610581,32.6911118,-103.075257,1155.48853,-24.3209436,0.532488572,1.03303692,,,,,,,,,,,,,,2023-04-19 14:10:24.663144+00:00
2023-04-19 07:10:24.863192-07:00,19.193491,3.52,1.15,3.29,-0.55,16.86,887.16,51.66,25.0,0.0,-0.00183812,-0.00342211,-0.00866325,32.6911118,-103.075257,1155.4729,-24.3141098,0.535063406,1.06015228,,,,,,,,,,,,,,2023-04-19 14:10:24.863192+00:00
2023-04-19 07:10:25.064342-07:00,19.394641,3.49,-0.06,3.45,-0.49,16.74,887.15,52.13,18.0,0.0,-0.00261269,-0.00217026,-0.0132242,32.6911118,-103.075257,1155.43445,-24.3041423,0.5322458,1.02923776,2.17471,60.2153,15555.3,23.5358,11892.0,-0.84605,-1.0,14.0,-1181.0,81.0,,0.0,,2023-04-19 14:10:25.064342+00:00
2023-04-19 07:10:25.263191-07:00,19.59349,3.1,0.59,3.0,-0.54,16.79,887.17,52.02,20.0,0.0,-0.00304082,2.82035e-05,-0.0159927,32.6911117,-103.075257,1155.4126,-24.2968424,0.532537762,1.05868524,,,,,,,,,,,,,,2023-04-19 14:10:25.263191+00:00
2023-04-19 07:10:25.463563-07:00,19.793862,2.79,0.89,2.63,-0.26,16.9,887.16,51.65,25.0,0.0,-0.00185511,-0.00211848,-0.0142206,32.6911117,-103.075258,1155.41589,-24.284525,0.533163247,1.04705488,,,,,,,,,,,,,,2023-04-19 14:10:25.463563+00:00
2023-04-19 07:10:25.663643-07:00,19.993942,2.45,0.8,2.31,-0.08,16.94,887.17,51.58,18.0,0.0,-0.00239681,-0.00162399,0.00097845,32.6911117,-103.075258,1155.45898,-24.2753606,0.531256791,1.04870678,,,,,,,,,,,,,,2023-04-19 14:10:25.663643+00:00
2023-04-19 07:10:25.863684-07:00,20.193983,3.14,2.06,2.36,-0.16,16.59,887.18,52.61,21.0,0.0,-0.000860417,-0.000964438,0.0176326,32.6911117,-103.075258,1155.48096,-24.2663728,0.535613726,1.05620215,,,,,,,,,,,,,,2023-04-19 14:10:25.863684+00:00
2023-04-19 07:10:26.064119-07:00,20.394418,4.6,3.12,3.38,-0.06,16.42,887.12,53.23,25.0,0.0,-0.000235929,-0.000666882,0.0166742,32.6911116,-103.075258,1155.45447,-24.257829,0.532816024,1.04983331,2.17217,59.7038,15569.9,23.5438,11870.0,-0.855263,-1.0,11.0,-1203.0,81.0,,0.0,,2023-04-19 14:10:26.064119+00:00
2023-04-19 07:10:26.263225-07:00,20.593524,4.75,3.83,2.81,0.07,16.66,887.09,52.4,18.0,0.0,-0.000579462,-0.000698622,0.00850369,32.6911116,-103.075258,1155.43567,-24.2472634,0.535969346,1.04692722,,,,,,,,,,,,,,2023-04-19 14:10:26.263225+00:00
2023-04-19 07:10:26.463172-07:00,20.793471,4.17,3.45,2.34,-0.15,16.39,887.13,53.29,23.0,0.0,0.000419301,-0.000705343,0.00468133,32.6911116,-103.075258,1155.42432,-24.2365374,0.536097907,1.04592995,,,,,,,,,,,,,,2023-04-19 14:10:26.463172+00:00
2023-04-19 07:10:26.663113-07:00,20.993412,3.3,2.88,1.62,0.01,16.61,887.14,52.6,24.0,0.0,-8.41213e-05,-0.000523725,0.00446171,32.6911116,-103.075258,1155.4325,-24.2253102,0.533293368,1.04932769,,,,,,,,,,,,,,2023-04-19 14:10:26.663113+00:00
2023-04-19 07:10:26.863038-07:00,21.193337,2.4,2.05,1.15,0.44,16.82,887.18,51.9,17.0,0.0,8.87706e-05,-0.000866897,0.00398132,32.6911115,-103.075258,1155.44019,-24.2116418,0.535763345,1.04516538,,,,,,,,,,,,,,2023-04-19 14:10:26.863038+00:00
2023-04-19 07:10:27.064351-07:00,21.39465,2.99,2.63,1.41,0.16,16.57,887.17,52.81,23.0,0.0,-0.000245899,3.85548e-05,0.00421157,32.6911115,-103.075258,1155.45642,-24.198736,0.532901723,1.0430688,2.17177,60.3779,15573.7,23.5516,11842.0,-0.873924,-1.0,14.0,-1178.0,81.0,,0.0,,2023-04-19 14:10:27.064351+00:00
2023-04-19 07:10:27.263397-07:00,21.593696,2.83,1.55,2.37,0.03,16.63,887.17,52.54,22.0,0.0,-0.000162345,-0.00094268,0.0040308,32.6911115,-103.075258,1155.46423,-24.1889315,0.5323459,1.04892186,,,,,,,,,,,,,,2023-04-19 14:10:27.263397+00:00
2023-04-19 07:10:27.463592-07:00,21.793891,2.81,2.31,1.58,0.24,16.49,887.18,53.06,18.0,0.0,-0.000140634,5.66435e-05,0.00191045,32.6911114,-103.075258,1155.46594,-24.1776445,0.531752391,1.04545955,,,,,,,,,,,,,,2023-04-19 14:10:27.463592+00:00
2023-04-19 07:10:27.663454-07:00,21.993753,2.07,0.82,1.89,-0.05,16.55,887.19,52.82,24.0,0.0,-2.08407e-06,-0.000245929,5.75276e-05,32.6911114,-103.075258,1155.47034,-24.1689065,0.530263996,1.04771229,,,,,,,,,,,,,,2023-04-19 14:10:27.663454+00:00
2023-04-19 07:10:27.863594-07:00,22.193893,2.87,0.58,2.81,-0.17,16.71,887.18,52.17,22.0,0.0,-0.000111867,-0.000330917,-0.000261017,32.6911113,-103.075258,1155.46533,-24.1597059,0.532805599,1.0445734,,,,,,,,,,,,,,2023-04-19 14:10:27.863594+00:00
2023-04-19 07:10:28.064502-07:00,22.394801,2.76,0.42,2.71,-0.31,16.73,887.18,52.21,17.0,0.0,-0.000878322,0.000863403,-0.00035546,32.6911113,-103.075258,1155.46643,-24.149159,0.531004258,1.05239272,2.17529,60.3704,15570.2,23.5602,11840.0,-0.859905,-1.0,11.0,-1203.0,81.0,,0.0,,2023-04-19 14:10:28.064502+00:00
2023-04-19 07:10:28.263446-07:00,22.593745,3.0,0.57,2.91,-0.46,16.81,887.18,51.89,25.0,0.0,-0.000713689,-0.000715756,-0.00117004,32.6911113,-103.075258,1155.46948,-24.1379704,0.532824353,1.05060963,,,,,,,,,,,,,,2023-04-19 14:10:28.263446+00:00
2023-04-19 07:10:28.463464-07:00,22.793763,2.39,1.0,2.16,-0.24,16.74,887.19,52.11,20.0,0.0,-0.000669312,0.000210299,0.00010035,32.6911113,-103.075259,1155.48206,-24.1255989,0.534386689,1.04784187,,,,,,,,,,,,,,2023-04-19 14:10:28.463464+00:00
2023-04-19 07:10:28.663637-07:00,22.993936,2.03,0.39,1.98,-0.21,16.77,887.18,52.17,17.0,0.0,-0.00052435,-0.0010277,0.00089611,32.6911113,-103.075259,1155.48547,-24.1140001,0.532921154,1.05282757,,,,,,,,,,,,,,2023-04-19 14:10:28.663637+00:00
2023-04-19 07:10:28.863380-07:00,23.193679,1.83,0.97,1.55,-0.09,16.77,887.18,52.08,25.0,0.0,-0.00101607,0.000726378,0.000948922,32.6911112,-103.075259,1155.49988,-24.1015248,0.535773172,1.04696127,,,,,,,,,,,,,,2023-04-19 14:10:28.863380+00:00
2023-04-19 07:10:29.064359-07:00,23.394658,2.29,0.76,2.15,-0.23,16.79,887.2,52.0,19.0,0.0,-0.000562739,0.000303407,0.00136884,32.6911112,-103.075259,1155.49756,-24.0964463,0.536389683,1.05787092,2.17103,59.3473,15573.4,23.5683,11854.0,-0.845273,-1.0,17.0,-1165.0,81.0,,0.0,,2023-04-19 14:10:29.064359+00:00
2023-04-19 07:10:29.263625-07:00,23.593924,1.72,0.22,1.7,-0.15,17.23,887.2,50.62,18.0,0.0,-0.000768627,-0.000350039,0.00150622,32.6911112,-103.075259,1155.49951,-24.0913528,0.535235323,1.05270279,,,,,,,,,,,,,,2023-04-19 14:10:29.263625+00:00
2023-04-19 07:10:29.463424-07:00,23.793723,2.02,0.37,1.98,-0.15,16.71,887.18,52.28,25.0,0.0,-0.00084488,1.98292e-05,0.00231729,32.6911112,-103.075259,1155.51294,-24.0836066,0.536432223,1.05169731,,,,,,,,,,,,,,2023-04-19 14:10:29.463424+00:00
2023-04-19 07:10:29.663156-07:00,23.993455,1.74,0.66,1.61,0.09,16.83,887.18,51.88,19.0,0.0,-0.00086324,-6.38488e-05,0.0047982,32.6911112,-103.075259,1155.52747,-24.0735973,0.538001429,1.04360688,,,,,,,,,,,,,,2023-04-19 14:10:29.663156+00:00
2023-04-19 07:10:29.863309-07:00,24.193608,2.78,0.8,2.63,-0.35,16.64,887.19,52.51,19.0,0.0,-0.000832117,9.86652e-07,0.00270526,32.6911111,-103.075259,1155.52283,-24.0630446,0.536695572,1.05742817,,,,,,,,,,,,,,2023-04-19 14:10:29.863309+00:00
2023-04-19 07:10:30.063690-07:00,24.393989,3.08,2.07,2.27,0.29,16.69,887.18,52.29,25.0,0.0,-0.000162961,9.08377e-05,-0.000426864,32.6911111,-103.075259,1155.51208,-24.057458,0.533310205,1.06157971,2.17068,60.5686,15573.8,23.5764,11897.0,-0.851934,-1.0,12.0,-1195.0,81.0,,0.0,,2023-04-19 14:10:30.063690+00:00
2023-04-19 07:10:30.263476-07:00,24.593775,3.21,1.75,2.69,0.03,16.7,887.18,52.32,18.0,0.0,-0.000224985,-0.000735469,-0.00214115,32.6911111,-103.075259,1155.50488,-24.0474598,0.535674821,1.06927941,,,,,,,,,,,,,,2023-04-19 14:10:30.263476+00:00
2023-04-19 07:10:30.463331-07:00,24.79363,3.74,0.87,3.62,-0.39,16.57,887.16,52.76,20.0,0.0,-0.000416866,0.000682489,-0.00102315,32.6911111,-103.075259,1155.50439,-24.0396363,0.533796082,1.07331057,,,,,,,,,,,,,,2023-04-19 14:10:30.463331+00:00
2023-04-19 07:10:30.663746-07:00,24.994045,4.51,1.14,4.35,-0.24,16.7,887.13,52.36,25.0,0.0,3.73822e-06,-0.00145345,0.00260907,32.691111,-103.075259,1155.52307,-24.0247898,0.528080662,1.07097818,,,,,,,,,,,,,,2023-04-19 14:10:30.663746+00:00
2023-04-19 07:10:30.863008-07:00,25.193307,4.55,0.96,4.44,-0.25,16.75,887.15,52.15,18.0,0.0,-0.000664903,7.97564e-05,0.00419674,32.691111,-103.075259,1155.53479,-24.016049,0.530793942,1.04950306,,,,,,,,,,,,,,2023-04-19 14:10:30.863008+00:00
2023-04-19 07:10:31.064121-07:00,25.39442,3.38,0.68,3.3,-0.2,16.71,887.16,52.33,19.0,0.0,-0.000193649,-0.000303369,0.00224606,32.691111,-103.075259,1155.5282,-24.0040824,0.530639125,1.05998662,2.16503,59.7089,15578.3,23.5855,11833.0,-0.813592,-1.0,11.0,-1203.0,81.0,,0.0,,2023-04-19 14:10:31.064121+00:00
2023-04-19 07:10:31.262863-07:00,25.593162,3.42,0.25,3.4,-0.24,16.63,887.19,52.54,24.0,0.0,-0.000233227,-0.00105649,0.00179244,32.6911109,-103.075259,1155.53455,-23.9904065,0.528749245,1.04868618,,,,,,,,,,,,,,2023-04-19 14:10:31.262863+00:00
2023-04-19 07:10:31.462895-07:00,25.793194,2.93,0.55,2.86,-0.23,16.7,887.18,52.36,17.0,0.0,-0.000913953,-0.000133938,0.000546251,32.6911109,-103.075259,1155.53247,-23.9812137,0.531619316,1.04982381,,,,,,,,,,,,,,2023-04-19 14:10:31.462895+00:00
2023-04-19 07:10:31.663063-07:00,25.993362,3.46,0.36,3.44,-0.17,16.84,887.18,51.9,20.0,0.0,3.89085e-06,-0.000491105,-0.00128899,32.6911109,-103.075259,1155.52307,-23.9727653,0.532298884,1.05145052,,,,,,,,,,,,,,2023-04-19 14:10:31.663063+00:00
2023-04-19 07:10:31.862918-07:00,26.193217,3.27,1.29,3.0,-0.2,16.85,887.15,51.77,24.0,0.0,-0.000603112,-0.00034609,-0.00208238,32.6911109,-103.075259,1155.5293,-23.9626414,0.531926441,1.05275446,,,,,,,,,,,,,,2023-04-19 14:10:31.862918+00:00
2023-04-19 07:10:32.064285-07:00,26.394584,3.05,1.35,2.72,-0.29,16.89,887.18,51.72,17.0,0.0,-0.000238137,-0.000853135,-0.000510209,32.6911108,-103.075259,1155.53455,-23.951607,0.532808954,1.06636017,2.16909,59.9227,15581.0,23.5937,11833.0,-0.795863,-1.0,11.0,-1203.0,81.0,,0.0,,2023-04-19 14:10:32.064285+00:00
2023-04-19 07:10:32.263437-07:00,26.593736,2.9,2.09,1.99,0.25,16.84,887.19,51.95,20.0,0.0,-0.000520302,-0.000805687,-8.77307e-06,32.6911108,-103.075259,1155.53162,-23.9356998,0.533995945,1.0605739,,,,,,,,,,,,,,2023-04-19 14:10:32.263437+00:00
2023-04-19 07:10:32.463674-07:00,26.793973,1.98,0.6,1.88,0.2,16.97,887.2,51.43,23.0,0.0,-0.000311155,-0.000604402,-0.00172229,32.6911108,-103.075259,1155.51892,-23.9239747,0.533816286,1.07520062,,,,,,,,,,,,,,2023-04-19 14:10:32.463674+00:00
2023-04-19 07:10:32.663612-07:00,26.993911,3.21,1.23,2.96,-0.19,16.9,887.17,51.77,17.0,0.0,-0.000383603,-0.00036254,-0.00290688,32.6911108,-103.07526,1155.50757,-23.9107757,0.53521785,1.06034953,,,,,,,,,,,,,,2023-04-19 14:10:32.663612+00:00
2023-04-19 07:10:32.862910-07:00,27.193209,3.88,1.49,3.58,-0.07,16.58,887.17,52.72,21.0,0.0,-0.000208331,-0.000397394,-0.00334867,32.6911107,-103.07526,1155.50525,-23.9008081,0.536709927,1.07922154,,,,,,,,,,,,,,2023-04-19 14:10:32.862910+00:00
2023-04-19 07:10:33.064473-07:00,27.394772,4.81,1.37,4.61,-0.13,16.83,887.14,51.92,23.0,0.0,0.000882061,-0.00265241,-0.00017,32.6911107,-103.07526,1155.51379,-23.8938315,0.536624854,1.05996185,2.16724,60.3941,15578.6,23.6021,11866.0,-0.813099,-1.0,14.0,-1181.0,81.0,,0.0,,2023-04-19 14:10:33.064473+00:00
2023-04-19 07:10:33.263977-07:00,27.594276,4.15,0.93,4.03,-0.28,16.65,887.14,52.46,17.0,0.0,-0.00101612,0.00162823,0.00096325,32.6911107,-103.07526,1155.52429,-23.8852922,0.536505741,1.04028056,,,,,,,,,,,,,,2023-04-19 14:10:33.263977+00:00
2023-04-19 07:10:33.463654-07:00,27.793953,3.83,0.13,3.74,-0.83,16.41,887.16,53.28,22.0,0.0,-4.43936e-05,-0.00134484,0.00276649,32.6911106,-103.07526,1155.54321,-23.8795423,0.539913032,1.06922529,,,,,,,,,,,,,,2023-04-19 14:10:33.463654+00:00
2023-04-19 07:10:33.663648-07:00,27.993947,2.95,1.71,2.38,-0.27,16.51,887.16,53.0,23.0,0.0,0.000368044,-0.00144944,0.00335954,32.6911106,-103.07526,1155.5542,-23.8716207,0.541311639,1.03095038,,,,,,,,,,,,,,2023-04-19 14:10:33.663648+00:00
2023-04-19 07:10:33.863064-07:00,28.193363,2.8,1.4,2.41,-0.22,16.54,887.17,53.02,17.0,0.0,0.000889988,-0.000116387,-0.00184663,32.6911105,-103.07526,1155.54492,-23.8643566,0.540082311,1.06247184,,,,,,,,,,,,,,2023-04-19 14:10:33.863064+00:00
2023-04-19 07:10:34.063771-07:00,28.39407,3.05,1.11,2.82,-0.38,16.69,887.16,52.43,23.0,0.0,0.00328279,-0.0026733,-0.0114306,32.6911105,-103.07526,1155.54089,-23.8545967,0.541962007,1.03948556,2.16504,60.3134,15586.9,23.6099,11882.0,-0.807133,-1.0,11.0,-1224.0,81.0,,0.0,,2023-04-19 14:10:34.063771+00:00
2023-04-19 07:10:34.262966-07:00,28.593265,2.63,1.47,2.16,-0.26,16.61,887.17,52.77,21.0,0.0,0.00186466,-0.000815947,-0.0148441,32.6911104,-103.07526,1155.54517,-23.8440073,0.542295929,1.05615049,,,,,,,,,,,,,,2023-04-19 14:10:34.262966+00:00
2023-04-19 07:10:34.463786-07:00,28.794085,3.68,1.2,3.46,-0.32,16.62,887.18,52.52,17.0,0.0,0.00151197,-0.00211548,-0.0239104,32.6911104,-103.07526,1155.526,-23.8335964,0.539347244,1.05661694,,,,,,,,,,,,,,2023-04-19 14:10:34.463786+00:00
2023-04-19 07:10:34.663066-07:00,28.993365,3.82,2.67,2.73,-0.01,16.62,887.15,52.69,24.0,0.0,0.000301495,-0.000120973,-0.0274075,32.6911103,-103.07526,1155.52979,-23.8244124,0.539144508,1.05402146,,,,,,,,,,,,,,2023-04-19 14:10:34.663066+00:00
2023-04-19 07:10:34.862929-07:00,29.193228,3.59,2.61,2.46,-0.13,16.35,887.15,53.56,20.0,0.0,-0.000198617,-0.00156757,-0.0218171,32.6911103,-103.07526,1155.54846,-23.8141388,0.53966453,1.05183842,,,,,,,,,,,,,,2023-04-19 14:10:34.862929+00:00
2023-04-19 07:10:35.064549-07:00,29.394848,3.44,2.85,1.9,-0.24,16.39,887.16,53.36,17.0,0.0,0.00024522,-6.51853e-05,-0.0135227,32.6911103,-103.07526,1155.56873,-23.8059841,0.536143748,1.04468505,2.16473,59.0906,15578.8,23.6182,11889.0,-0.754914,-1.0,14.0,-1187.0,81.0,,0.0,,2023-04-19 14:10:35.064549+00:00
2023-04-19 07:10:35.263089-07:00,29.593388,2.63,2.08,1.59,-0.18,16.25,887.18,53.89,23.0,0.0,0.000140991,0.000220751,-0.00811491,32.6911102,-103.07526,1155.57324,-23.798226,0.538102222,1.0458689,,,,,,,,,,,,,,2023-04-19 14:10:35.263089+00:00
2023-04-19 07:10:35.462883-07:00,29.793182,2.2,1.39,1.69,-0.16,16.53,887.19,52.98,20.0,0.0,-0.000171585,6.01404e-05,-0.00615012,32.6911102,-103.075261,1155.57495,-23.7878248,0.538903106,1.0380195,,,,,,,,,,,,,,2023-04-19 14:10:35.462883+00:00
2023-04-19 07:10:35.663611-07:00,29.99391,1.98,1.63,1.12,0.03,16.67,887.2,52.48,17.0,0.0,1.83908e-05,-0.000221741,-0.00516771,32.6911101,-103.075261,1155.58118,-23.7768214,0.537398964,1.05208552,,,,,,,,,,,,,,2023-04-19 14:10:35.663611+00:00
2023-04-19 07:10:35.863275-07:00,30.193574,2.02,0.3,1.99,-0.17,16.91,887.2,51.65,24.0,0.0,0.000121668,-0.000403607,-0.00611515,32.6911101,-103.075261,1155.56812,-23.7617139,0.535771717,1.05435982,,,,,,,,,,,,,,2023-04-19 14:10:35.863275+00:00
2023-04-19 07:10:36.063713-07:00,30.394012,2.44,0.47,2.37,-0.29,16.81,887.2,52.0,19.0,0.0,0.000446533,0.000113509,-0.00550468,32.6911101,-103.075261,1155.57861,-23.7521608,0.534649956,1.05533681,2.16166,61.4223,15587.7,23.6265,11874.0,-0.785611,-1.0,11.0,-1192.0,81.0,,0.0,,2023-04-19 14:10:36.063713+00:00
2023-04-19 07:10:36.263568-07:00,30.593867,2.89,0.62,2.81,-0.29,16.93,887.18,51.72,18.0,0.0,-0.000629779,-0.00108815,-0.00421529,32.69111,-103.075261,1155.57886,-23.745403,0.533943818,1.06803397,,,,,,,,,,,,,,2023-04-19 14:10:36.263568+00:00
2023-04-19 07:10:36.463206-07:00,30.793505,3.6,1.16,3.39,-0.34,16.94,887.16,51.7,25.0,0.0,-0.000586497,-0.000650137,-0.00396252,32.69111,-103.075261,1155.58044,-23.730891,0.531981436,1.05934244,,,,,,,,,,,,,,2023-04-19 14:10:36.463206+00:00
2023-04-19 07:10:36.663650-07:00,30.993949,3.97,1.81,3.53,-0.1,16.82,887.15,51.95,18.0,0.0,-0.00109018,-0.0007476,-0.00246916,32.6911099,-103.075261,1155.5968,-23.7225853,0.533873401,1.06167876,,,,,,,,,,,,,,2023-04-19 14:10:36.663650+00:00
2023-04-19 07:10:36.862942-07:00,31.193241,3.42,2.08,2.7,-0.19,16.69,887.17,52.4,18.0,0.0,-0.000716835,-0.000903105,-0.00155373,32.6911098,-103.075261,1155.60962,-23.7220223,0.534604635,1.05093369,,,,,,,,,,,,,,2023-04-19 14:10:36.862942+00:00
2023-04-19 07:10:37.064171-07:00,31.39447,3.64,1.37,3.35,-0.36,16.49,887.16,53.18,26.0,0.0,-0.000459077,-0.000525054,-0.00151499,32.6911098,-103.075261,1155.61511,-23.7158834,0.532231546,1.04967363,2.16222,61.2422,15595.9,23.6344,11819.0,-0.797231,-1.0,12.0,-1161.0,81.0,,0.0,,2023-04-19 14:10:37.064171+00:00
2023-04-19 07:10:37.263550-07:00,31.593849,2.63,-0.19,2.61,-0.2,16.72,887.16,52.24,18.0,0.0,9.06313e-06,-0.000148228,-0.00216027,32.6911097,-103.075262,1155.61108,-23.7075943,0.533966163,1.04000624,,,,,,,,,,,,,,2023-04-19 14:10:37.263550+00:00
2023-04-19 07:10:37.463060-07:00,31.793359,2.99,1.81,2.37,0.15,16.61,887.2,52.73,18.0,0.0,-0.000102018,-0.000122789,-0.00193634,32.6911097,-103.075262,1155.61902,-23.7009998,0.534463476,1.04326499,,,,,,,,,,,,,,2023-04-19 14:10:37.463060+00:00
2023-04-19 07:10:37.662841-07:00,31.99314,3.1,0.76,2.98,-0.43,16.46,887.19,53.16,25.0,0.0,-0.000601802,-0.00134881,-0.000885764,32.6911097,-103.075262,1155.62134,-23.6915312,0.53138676,1.04467544,,,,,,,,,,,,,,2023-04-19 14:10:37.662841+00:00
2023-04-19 07:10:37.863620-07:00,32.193919,3.42,1.51,3.06,-0.27,16.4,887.17,53.43,18.0,0.0,-0.000717337,0.000475401,-0.00259654,32.6911097,-103.075262,1155.61902,-23.6817739,0.533671073,1.05071285,,,,,,,,,,,,,,2023-04-19 14:10:37.863620+00:00
2023-04-19 07:10:38.085860-07:00,32.416159,3.7,1.93,3.16,-0.1,16.54,887.15,53.03,19.0,0.0,0.000292575,-0.00119636,-0.00280871,32.6911097,-103.075262,1155.625,-23.6745773,0.534302203,1.06061638,2.16058,60.9575,15593.6,23.6425,11882.0,-0.793521,-1.0,12.0,-1170.0,81.0,,0.0,,2023-04-19 14:10:38.085860+00:00
2023-04-19 07:10:38.263751-07:00,32.59405,3.57,1.94,2.99,-0.22,16.49,887.15,53.18,24.0,0.0,-0.000342336,0.000215883,-0.00140152,32.6911097,-103.075262,1155.63025,-23.6647677,0.535285803,1.03722707,,,,,,,,,,,,,,2023-04-19 14:10:38.263751+00:00
2023-04-19 07:10:38.463126-07:00,32.793425,2.19,0.78,2.04,0.12,16.83,887.16,51.97,17.0,0.0,-0.000324047,0.000125868,9.66347e-05,32.6911096,-103.075262,1155.63745,-23.6600414,0.535394236,1.05598077,,,,,,,,,,,,,,2023-04-19 14:10:38.463126+00:00
2023-04-19 07:10:38.663127-07:00,32.993426,1.75,1.49,0.9,0.19,17.12,887.19,51.04,19.0,0.0,-0.000361957,-0.000152173,-0.00114219,32.6911096,-103.075262,1155.63965,-23.6543392,0.535368441,1.04929833,,,,,,,,,,,,,,2023-04-19 14:10:38.663127+00:00
2023-04-19 07:10:38.863266-07:00,33.193565,1.8,1.25,1.29,0.17,17.03,887.19,51.33,24.0,0.0,0.00039846,-0.000210395,-0.00173622,32.6911095,-103.075262,1155.63721,-23.6462379,0.53448543,1.06940611,,,,,,,,,,,,,,2023-04-19 14:10:38.863266+00:00
2023-04-19 07:10:39.064277-07:00,33.394576,3.56,0.24,3.55,-0.16,16.59,887.16,52.8,17.0,0.0,0.000252053,-0.000491301,-0.00206551,32.6911095,-103.075262,1155.63965,-23.6411462,0.531376735,1.06402128,2.15861,61.3331,15600.0,23.6504,11856.0,-0.806998,-1.0,12.0,-1199.0,81.0,,0.0,,2023-04-19 14:10:39.064277+00:00
2023-04-19 07:10:39.263589-07:00,33.593888,3.7,1.62,3.32,0.0,16.75,887.15,52.18,20.0,0.0,0.000326716,0.000553406,-0.00312905,32.6911095,-103.075262,1155.63562,-23.6331032,0.532933813,1.06042895,,,,,,,,,,,,,,2023-04-19 14:10:39.263589+00:00
2023-04-19 07:10:39.462984-07:00,33.793283,2.59,1.73,1.89,0.32,16.64,887.18,52.68,24.0,0.0,0.000140187,-0.000613722,-0.00252135,32.6911095,-103.075262,1155.64026,-23.6243857,0.536011398,1.05414026,,,,,,,,,,,,,,2023-04-19 14:10:39.462984+00:00
2023-04-19 07:10:39.663817-07:00,33.994116,2.67,1.63,2.1,0.32,16.85,887.2,51.9,17.0,0.0,-7.09332e-07,0.000491057,-0.00260349,32.6911094,-103.075262,1155.64917,-23.6143764,0.53368603,1.06986413,,,,,,,,,,,,,,2023-04-19 14:10:39.663817+00:00
2023-04-19 07:10:39.863785-07:00,34.194084,2.5,0.62,2.41,-0.16,16.61,887.19,52.66,20.0,0.0,0.000363948,-0.000802318,-0.00181405,32.6911094,-103.075262,1155.64978,-23.6088613,0.533105103,1.05340632,,,,,,,,,,,,,,2023-04-19 14:10:39.863785+00:00
2023-04-19 07:10:40.101569-07:00,34.431868,2.56,0.25,2.51,-0.43,16.74,887.19,52.39,23.0,0.0,-0.000520951,0.00144969,-0.00359167,32.6911094,-103.075263,1155.64429,-23.601368,0.536021875,1.05124665,2.16038,61.6099,15598.3,23.6567,11819.0,-0.819031,-1.0,13.0,-1172.0,81.0,,0.0,,2023-04-19 14:10:40.101569+00:00
2023-04-19 07:10:40.263708-07:00,34.594007,3.25,1.45,2.91,-0.05,16.74,887.18,52.36,17.0,0.0,0.000476569,-0.000528249,-0.00264926,32.6911093,-103.075263,1155.65015,-23.5908809,0.531840641,1.06548341,,,,,,,,,,,,,,2023-04-19 14:10:40.263708+00:00
2023-04-19 07:10:40.463682-07:00,34.793981,3.22,1.34,2.93,0.07,16.76,887.18,52.34,21.0,0.0,-0.00025829,0.000391633,-0.00210081,32.6911093,-103.075263,1155.64978,-23.5781206,0.53392278,1.05494913,,,,,,,,,,,,,,2023-04-19 14:10:40.463682+00:00
2023-04-19 07:10:40.662953-07:00,34.993252,3.72,1.92,3.18,-0.18,16.63,887.17,52.77,22.0,0.0,0.000288367,-8.12045e-05,-0.00230397,32.6911093,-103.075263,1155.6499,-23.5729236,0.532463185,1.06719883,,,,,,,,,,,,,,2023-04-19 14:10:40.662953+00:00
2023-04-19 07:10:40.863793-07:00,35.194092,3.82,2.52,2.86,-0.04,16.54,887.15,52.94,17.0,0.0,7.51882e-05,9.91689e-05,-0.00046721,32.6911092,-103.075263,1155.65796,-23.5675764,0.526348894,1.05625968,,,,,,,,,,,,,,2023-04-19 14:10:40.863793+00:00
2023-04-19 07:10:41.109354-07:00,35.439653,4.12,3.01,2.82,0.01,16.55,887.14,53.05,21.0,0.0,-0.000123206,0.000220893,-0.000901171,32.6911092,-103.075263,1155.65918,-23.5624396,0.529527594,1.0736816,2.15983,61.2138,15607.1,23.6604,11819.0,-0.81898,-1.0,13.0,-1172.0,81.0,,0.0,,2023-04-19 14:10:41.109354+00:00
2023-04-19 07:10:41.263115-07:00,35.593414,3.91,1.76,3.49,-0.14,16.62,887.15,52.75,21.0,0.0,0.000451205,-0.000927607,-0.000398295,32.6911091,-103.075263,1155.66479,-23.5527892,0.527507103,1.05718619,,,,,,,,,,,,,,2023-04-19 14:10:41.263115+00:00
2023-04-19 07:10:41.463527-07:00,35.793826,3.56,1.91,3.01,-0.04,16.79,887.16,52.18,17.0,0.0,0.000148066,0.00103721,0.00128494,32.691109,-103.075263,1155.66992,-23.5512617,0.530257822,1.07274986,,,,,,,,,,,,,,2023-04-19 14:10:41.463527+00:00
2023-04-19 07:10:41.662846-07:00,35.993145,4.01,2.35,3.24,0.23,16.75,887.16,52.32,22.0,0.0,0.000264459,-0.000569604,0.000685601,32.6911089,-103.075263,1155.67188,-23.5414013,0.529360178,1.07779655,,,,,,,,,,,,,,2023-04-19 14:10:41.662846+00:00
2023-04-19 07:10:41.863702-07:00,36.194001,4.05,2.17,3.42,-0.09,16.76,887.16,52.21,21.0,0.0,-0.000112346,0.000669376,0.000432006,32.6911088,-103.075263,1155.67688,-23.5374476,0.52888622,1.0761394,,,,,,,,,,,,,,2023-04-19 14:10:41.863702+00:00
2023-04-19 07:10:42.149228-07:00,36.479527,4.54,2.25,3.94,-0.08,16.63,887.15,52.76,17.0,0.0,0.000585007,-0.000769507,-0.000653321,32.6911086,-103.075263,1155.67419,-23.5230245,0.52487341,1.04681739,2.1564,62.3673,15598.2,23.6688,11888.0,-0.83807,-1.0,13.0,-1181.0,81.0,,0.0,,2023-04-19 14:10:42.149228+00:00
2023-04-19 07:10:42.262954-07:00,36.593253,2.2,1.11,1.85,0.46,16.99,887.17,51.45,24.0,0.0,-0.000631552,0.00157849,-0.000293095,32.6911086,-103.075263,1155.67358,-23.5192452,0.526942454,1.05593776,,,,,,,,,,,,,,2023-04-19 14:10:42.262954+00:00
2023-04-19 07:10:42.463462-07:00,36.793761,3.59,1.68,3.16,0.2,16.79,887.17,52.19,20.0,0.0,7.63643e-05,0.000776061,0.00132366,32.6911086,-103.075263,1155.68127,-23.5108939,0.526579876,1.08098276,,,,,,,,,,,,,,2023-04-19 14:10:42.463462+00:00
2023-04-19 07:10:42.663648-07:00,36.993947,4.77,1.84,4.4,0.06,16.46,887.16,53.33,17.0,0.0,0.000640647,-0.00213987,0.00572686,32.6911085,-103.075263,1155.7019,-23.4992741,0.527790591,1.03200849,,,,,,,,,,,,,,2023-04-19 14:10:42.663648+00:00
2023-04-19 07:10:42.862930-07:00,37.193229,3.88,0.94,3.75,-0.4,16.26,887.12,54.02,24.0,0.0,-0.00158683,0.000313284,0.0118223,32.6911084,-103.075263,1155.71521,-23.4921695,0.529561714,1.04911581,,,,,,,,,,,,,,2023-04-19 14:10:42.862930+00:00
2023-04-19 07:10:43.157007-07:00,37.487306,4.04,1.97,3.52,0.22,16.43,887.14,53.33,20.0,0.0,-0.00209234,-0.00451407,-0.001099,32.6911083,-103.075263,1155.68433,-23.4868315,0.529656593,1.06354287,2.15659,60.8803,15589.9,23.6765,11834.0,-0.816098,-1.0,13.0,-1165.0,81.0,,0.0,,2023-04-19 14:10:43.157007+00:00
2023-04-19 07:10:43.263460-07:00,37.593759,4.46,1.62,4.15,0.12,16.46,887.15,53.27,17.0,0.0,-0.00171628,-0.00426775,-0.00785625,32.6911082,-103.075263,1155.672,-23.4768042,0.527784702,1.06808477,,,,,,,,,,,,,,2023-04-19 14:10:43.263460+00:00
2023-04-19 07:10:43.463691-07:00,37.79399,3.73,-0.05,3.69,0.58,16.78,887.08,52.31,24.0,0.0,0.00054147,-0.00720535,-0.0238103,32.6911081,-103.075263,1155.62659,-23.4700046,0.525037384,1.08843242,,,,,,,,,,,,,,2023-04-19 14:10:43.463691+00:00
2023-04-19 07:10:43.663621-07:00,37.99392,5.84,0.74,5.79,-0.32,15.99,887.13,54.96,19.0,0.0,-0.000195367,-0.00743198,-0.0401646,32.6911081,-103.075263,1155.58801,-23.4604817,0.529809139,1.06884284,,,,,,,,,,,,,,2023-04-19 14:10:43.663621+00:00
2023-04-19 07:10:43.863039-07:00,38.193338,5.13,1.54,4.89,0.16,16.04,887.13,54.68,18.0,0.0,-0.000314728,-0.0102682,-0.0496663,32.691108,-103.075263,1155.56433,-23.4530136,0.529780876,1.05851435,,,,,,,,,,,,,,2023-04-19 14:10:43.863039+00:00
2023-04-19 07:10:44.180904-07:00,38.511203,4.82,1.41,4.61,-0.03,16.29,887.14,53.91,25.0,0.0,-0.000168201,-0.00100535,-0.0402686,32.691108,-103.075263,1155.57227,-23.4385605,0.532690666,1.0530877,,,,,,,,,,,,,,2023-04-19 14:10:44.180904+00:00
2023-04-19 07:10:44.263616-07:00,38.593915,5.15,1.92,4.78,0.02,16.04,887.14,54.79,19.0,0.0,0.000613076,-0.0012844,-0.03327,32.691108,-103.075263,1155.56592,-23.4415586,0.531291806,1.0433744,,,,,,,,,,,,,,2023-04-19 14:10:44.263616+00:00
2023-04-19 07:10:44.463345-07:00,38.793644,5.27,2.79,4.47,0.08,16.27,887.09,53.94,18.0,0.0,-0.000705725,0.000692865,-0.021501,32.6911079,-103.075264,1155.56982,-23.4303529,0.528669762,1.0550452,,,,,,,,,,,,,,2023-04-19 14:10:44.463345+00:00
2023-04-19 07:10:44.662895-07:00,38.993194,5.24,2.4,4.65,-0.08,16.57,887.06,52.97,25.0,0.0,-2.30641e-05,-0.00211355,-0.0135279,32.6911078,-103.075264,1155.55969,-23.4223661,0.52745218,1.09052731,,,,,,,,,,,,,,2023-04-19 14:10:44.662895+00:00
2023-04-19 07:10:44.863613-07:00,39.193912,5.49,-0.18,5.47,-0.37,16.21,887.11,54.13,18.0,0.0,6.61284e-05,-0.00240213,-0.00593063,32.6911078,-103.075264,1155.59375,-23.4122673,0.520914769,1.0805131,,,,,,,,,,,,,,2023-04-19 14:10:44.863613+00:00
2023-04-19 07:10:45.204702-07:00,39.535001,5.63,-0.24,5.61,-0.36,16.2,887.11,54.17,17.0,0.0,0.00242127,-0.00727131,0.0100214,32.6911076,-103.075264,1155.64233,-23.4028951,0.529799968,1.02926017,,,,,,,,,,,,,,2023-04-19 14:10:45.204702+00:00
2023-04-19 07:10:45.262949-07:00,39.593248,4.78,-0.31,4.76,-0.1,16.22,887.11,54.16,24.0,0.0,0.000106297,-0.00307563,0.0153524,32.6911076,-103.075264,1155.66553,-23.3924244,0.53701795,1.0503859,,,,,,,,,,,,,,2023-04-19 14:10:45.262949+00:00
2023-04-19 07:10:45.463675-07:00,39.793974,5.04,-0.0,5.04,-0.22,16.69,887.09,52.57,19.0,0.0,0.00146609,-0.00927474,0.0286618,32.6911076,-103.075264,1155.72461,-23.3834841,0.534798616,1.09161906,,,,,,,,,,,,,,2023-04-19 14:10:45.463675+00:00
2023-04-19 07:10:45.663723-07:00,39.994022,5.09,-0.03,5.07,-0.42,16.93,887.09,51.65,18.0,0.0,0.000978832,-0.00856647,0.0308436,32.6911075,-103.075264,1155.74072,-23.3748995,0.537677446,1.02769239,,,,,,,,,,,,,,2023-04-19 14:10:45.663723+00:00
2023-04-19 07:10:45.863562-07:00,40.193861,3.17,-0.48,3.13,0.22,17.02,887.11,51.58,25.0,0.0,0.000517567,-0.00620169,0.022253,32.6911075,-103.075264,1155.75562,-23.3674306,0.533475241,1.07488723,,,,,,,,,,,,,,2023-04-19 14:10:45.863562+00:00
2023-04-19 07:10:46.228526-07:00,40.558825,2.79,-1.39,2.32,0.69,17.37,887.12,50.3,18.0,0.0,-0.000808547,-0.00989628,-0.000249741,32.6911074,-103.075264,1155.75684,-23.3576869,0.534509645,1.04618591,,,,,,,,,,,,,,2023-04-19 14:10:46.228526+00:00
2023-04-19 07:10:46.263339-07:00,40.593638,1.49,-0.84,1.01,0.71,17.77,887.16,49.03,18.0,0.0,-0.000808547,-0.00989628,-0.000249741,32.6911074,-103.075264,1155.75684,-23.3576869,0.534509645,1.04618591,,,,,,,,,,,,,,2023-04-19 14:10:46.263339+00:00
2023-04-19 07:10:46.463315-07:00,40.793614,2.5,-1.53,1.84,0.73,17.6,887.17,49.51,25.0,0.0,-0.00188241,-0.0107956,-0.0153181,32.6911073,-103.075264,1155.73169,-23.3484165,0.53861372,1.07484934,,,,,,,,,,,,,,2023-04-19 14:10:46.463315+00:00
2023-04-19 07:10:46.663559-07:00,40.993858,4.23,-0.4,4.2,-0.33,16.58,887.19,52.94,17.0,0.0,-0.0018374,-0.00849259,-0.0344667,32.6911073,-103.075264,1155.67542,-23.3393694,0.536915337,1.0630413,,,,,,,,,,,,,,2023-04-19 14:10:46.663559+00:00
2023-04-19 07:10:46.863702-07:00,41.194001,5.56,-0.25,5.55,-0.22,16.34,887.15,53.76,18.0,0.0,-0.00264279,-0.00937887,-0.0466689,32.6911073,-103.075264,1155.66528,-23.3309107,0.534776834,1.08008945,,,,,,,,,,,,,,2023-04-19 14:10:46.863702+00:00
2023-04-19 07:10:47.252657-07:00,41.582956,4.9,-0.28,4.88,-0.3,16.28,887.14,53.97,24.0,0.0,-0.000618115,-0.00245297,-0.0378172,32.6911072,-103.075264,1155.66516,-23.3167893,0.532126534,1.06007713,,,,,,,,,,,,,,2023-04-19 14:10:47.252657+00:00
2023-04-19 07:10:47.287086-07:00,41.617385,3.45,-0.77,3.36,0.17,16.3,887.17,53.82,18.0,0.0,-0.000618115,-0.00245297,-0.0378172,32.6911072,-103.075264,1155.66516,-23.3167893,0.532126534,1.06007713,,,,,,,,,,,,,,2023-04-19 14:10:47.287086+00:00
2023-04-19 07:10:47.463876-07:00,41.794175,2.69,-0.39,2.66,0.03,16.73,887.18,52.42,19.0,0.0,-0.000939479,-0.00113769,-0.0258764,32.6911071,-103.075264,1155.66138,-23.311105,0.533078985,1.03834441,,,,,,,,,,,,,,2023-04-19 14:10:47.463876+00:00
2023-04-19 07:10:47.663070-07:00,41.993369,2.61,0.02,2.61,0.13,16.91,887.18,51.9,25.0,0.0,-0.000210263,-0.000896389,-0.0171392,32.6911071,-103.075264,1155.66833,-23.3020063,0.534016243,1.04819678,,,,,,,,,,,,,,2023-04-19 14:10:47.663070+00:00
2023-04-19 07:10:47.863746-07:00,42.194045,2.72,0.06,2.72,-0.04,17.02,887.19,51.43,17.0,0.0,-0.000338041,-4.84285e-05,-0.0113883,32.691107,-103.075264,1155.65735,-23.2935355,0.532198686,1.05049382,,,,,,,,,,,,,,2023-04-19 14:10:47.863746+00:00
2023-04-19 07:10:48.173400-07:00,42.503699,4.47,-0.32,4.45,-0.32,16.64,887.16,52.72,21.0,0.0,0.000212063,-0.00125516,-0.00955583,32.6911069,-103.075264,1155.62891,-23.2851958,0.534011059,1.04380466,,,,,,,,,,,,,,2023-04-19 14:10:48.173400+00:00
2023-04-19 07:10:48.263049-07:00,42.593348,3.22,0.7,3.12,-0.38,16.67,887.16,52.62,24.0,0.0,-0.000260049,0.000120052,-0.00858788,32.6911069,-103.075264,1155.62585,-23.2822063,0.534301742,1.03743275,,,,,,,,,,,,,,2023-04-19 14:10:48.263049+00:00
2023-04-19 07:10:48.462887-07:00,42.793186,2.44,1.2,2.12,0.14,17.01,887.17,51.57,17.0,0.0,-0.000407341,7.88462e-05,-0.00589773,32.6911068,-103.075264,1155.63123,-23.2782094,0.535510021,1.05665419,,,,,,,,,,,,,,2023-04-19 14:10:48.462887+00:00
2023-04-19 07:10:48.663576-07:00,42.993875,1.61,-0.02,1.61,0.05,17.05,887.17,51.39,19.0,0.0,-0.000334358,-5.45897e-06,-0.00197747,32.6911068,-103.075264,1155.64539,-23.2720124,0.533323997,1.0479532,,,,,,,,,,,,,,2023-04-19 14:10:48.663576+00:00
2023-04-19 07:10:48.862974-07:00,43.193273,1.96,1.36,1.41,-0.04,17.08,887.18,51.27,24.0,0.0,-0.000781221,0.000395432,-0.00195503,32.6911067,-103.075264,1155.65063,-23.2671096,0.532775699,1.06493637,,,,,,,,,,,,,,2023-04-19 14:10:48.862974+00:00
2023-04-19 07:10:49.064453-07:00,43.394752,2.59,0.67,2.48,-0.34,17.28,887.17,50.63,17.0,0.0,-2.52662e-05,-0.00100728,-0.00114114,32.6911066,-103.075264,1155.65613,-23.2584867,0.533339476,1.05912277,2.15111,61.4273,15465.4,23.7163,11857.0,-0.77807,-1.0,11.0,-1191.0,81.0,,0.0,,2023-04-19 14:10:49.064453+00:00
2023-04-19 07:10:49.263384-07:00,43.593683,2.89,1.4,2.53,-0.04,17.34,887.17,50.49,21.0,0.0,-0.000692221,0.00100457,0.000100554,32.6911066,-103.075264,1155.66248,-23.2479639,0.529243274,1.06407166,,,,,,,,,,,,,,2023-04-19 14:10:49.263384+00:00
2023-04-19 07:10:49.463004-07:00,43.793303,3.17,2.3,2.17,0.2,16.96,887.19,51.67,23.0,0.0,-0.000302018,-0.000526275,-0.000834718,32.6911065,-103.075264,1155.65857,-23.2394229,0.532944185,1.06977853,,,,,,,,,,,,,,2023-04-19 14:10:49.463004+00:00
2023-04-19 07:10:49.663398-07:00,43.993697,3.58,2.41,2.64,-0.11,16.54,887.15,53.08,17.0,0.0,-0.00122414,0.00123154,-0.00275653,32.6911065,-103.075264,1155.65723,-23.2318106,0.533753676,1.06375422,,,,,,,,,,,,,,2023-04-19 14:10:49.663398+00:00
2023-04-19 07:10:49.863303-07:00,44.193602,2.5,2.11,1.18,0.64,16.63,887.18,52.82,22.0,0.0,-0.000416182,-0.00029785,-0.0032494,32.6911064,-103.075264,1155.65686,-23.2265339,0.532386083,1.07431126,,,,,,,,,,,,,,2023-04-19 14:10:49.863303+00:00
2023-04-19 07:10:50.063900-07:00,44.394199,1.99,1.88,0.04,0.66,16.77,887.18,52.31,23.0,0.0,-0.000340754,0.000438679,-0.00360037,32.6911064,-103.075264,1155.65198,-23.2153012,0.535056796,1.05760237,2.14923,61.1472,15490.6,23.7244,11835.0,-0.753261,-1.0,14.0,-1170.0,81.0,,0.0,,2023-04-19 14:10:50.063900+00:00
2023-04-19 07:10:50.262868-07:00,44.593167,1.77,0.98,1.34,0.61,17.05,887.18,51.38,17.0,0.0,-4.67207e-05,-2.2591e-05,-0.00357907,32.6911063,-103.075264,1155.64465,-23.2095613,0.531891026,1.07089364,,,,,,,,,,,,,,2023-04-19 14:10:50.262868+00:00
2023-04-19 07:10:50.463840-07:00,44.794139,1.69,0.11,1.64,0.39,17.37,887.17,50.36,22.0,0.0,-0.000900507,0.000147349,-0.00222794,32.6911063,-103.075264,1155.64392,-23.2021959,0.52943814,1.05492501,,,,,,,,,,,,,,2023-04-19 14:10:50.463840+00:00
2023-04-19 07:10:50.662961-07:00,44.99326,1.35,0.35,1.18,0.56,17.54,887.18,49.91,22.0,0.0,-0.000989854,0.00153649,-0.00375774,32.6911062,-103.075264,1155.63818,-23.1952138,0.530287386,1.07558329,,,,,,,,,,,,,,2023-04-19 14:10:50.662961+00:00
2023-04-19 07:10:50.863234-07:00,45.193533,2.49,0.78,2.36,-0.07,16.78,887.17,52.25,17.0,0.0,0.000255569,-0.000430029,-0.00273135,32.6911062,-103.075265,1155.64893,-23.1891423,0.530982265,1.074863,,,,,,,,,,,,,,2023-04-19 14:10:50.863234+00:00
2023-04-19 07:10:51.064476-07:00,45.394775,2.69,-0.32,2.67,-0.06,16.83,887.17,52.14,24.0,0.0,-0.000703371,0.000807382,0.000225526,32.6911061,-103.075265,1155.66174,-23.1814437,0.533241246,1.0726855,2.14551,61.7346,15511.8,23.7322,11893.0,-0.7605,-1.0,12.0,-1185.0,81.0,,0.0,,2023-04-19 14:10:51.064476+00:00
2023-04-19 07:10:51.263654-07:00,45.593953,2.24,0.4,2.2,-0.22,17.15,887.17,51.01,21.0,0.0,-0.000501143,-0.000239459,-0.000483726,32.6911061,-103.075265,1155.66382,-23.1732769,0.52968166,1.07675508,,,,,,,,,,,,,,2023-04-19 14:10:51.263654+00:00
2023-04-19 07:10:51.462927-07:00,45.793226,1.61,0.93,1.31,-0.08,17.08,887.2,51.4,17.0,0.0,-0.00106012,0.00113974,-0.00265256,32.6911061,-103.075265,1155.66748,-23.1657632,0.531098455,1.06222794,,,,,,,,,,,,,,2023-04-19 14:10:51.462927+00:00
2023-04-19 07:10:51.663253-07:00,45.993552,2.69,2.22,1.37,0.64,16.86,887.2,52.05,24.0,0.0,-0.000303437,-0.000300749,-0.00306067,32.6911061,-103.075265,1155.65833,-23.1572432,0.532033322,1.06993779,,,,,,,,,,,,,,2023-04-19 14:10:51.663253+00:00
2023-04-19 07:10:51.863363-07:00,46.193662,2.74,0.8,2.61,-0.2,16.61,887.18,52.84,20.0,0.0,-0.000741756,0.000889132,-0.00476296,32.691106,-103.075265,1155.64343,-23.1465631,0.527440341,1.0550231,,,,,,,,,,,,,,2023-04-19 14:10:51.863363+00:00
2023-04-19 07:10:52.064640-07:00,46.394939,2.67,-0.54,2.61,-0.0,16.79,887.18,52.27,18.0,0.0,-0.00132524,0.000238221,-0.00544798,32.691106,-103.075265,1155.63928,-23.1360307,0.52895853,1.07888413,2.14743,60.727,15537.1,23.7406,11856.0,-0.714492,-1.0,10.0,-1198.0,81.0,,0.0,,2023-04-19 14:10:52.064640+00:00
2023-04-19 07:10:52.263769-07:00,46.594068,2.82,-0.6,2.75,0.13,16.54,887.17,53.08,24.0,0.0,-0.000260657,-0.000225079,-0.00575273,32.6911059,-103.075265,1155.62927,-23.1273318,0.526192376,1.05240755,,,,,,,,,,,,,,2023-04-19 14:10:52.263769+00:00
2023-04-19 07:10:52.463769-07:00,46.794068,2.19,-0.74,2.04,0.32,16.91,887.18,51.84,19.0,0.0,-0.00120505,0.00146445,-0.00385468,32.6911059,-103.075265,1155.63721,-23.121753,0.526205561,1.07281092,,,,,,,,,,,,,,2023-04-19 14:10:52.463769+00:00
2023-04-19 07:10:52.663244-07:00,46.993543,2.21,-1.0,1.94,0.35,17.25,887.18,50.84,17.0,0.0,-6.53047e-05,-0.00114528,-0.00298216,32.6911059,-103.075265,1155.64136,-23.1166621,0.526747437,1.05930818,,,,,,,,,,,,,,2023-04-19 14:10:52.663244+00:00
